[
  {
    "key" : "AC",
    "name" : "AC - IAPEN",
    "latitude" : -9.966836,
    "longitude" : -67.813035
  },
  {
    "key" : "AM",
    "name" : "AM - SEAP",
    "latitude" : -3.134734,
    "longitude" : -60.028639
  },
  {
    "key" : "BA",
    "name" : "BA - SEAP",
    "latitude" : -14.853648,
    "longitude" : -40.838025
  },
  {
    "key" : "CE",
    "name" : "CE - SEJUS",
    "latitude" : -3.727026,
    "longitude" : -38.511573
  },
  {
    "key" : "GO",
    "name" : "GO - SSP",
    "latitude" : -16.695871,
    "longitude" : -49.272426
  },
  {
    "key" : "DF",
    "name" : "Distrito Federal",
    "latitude" : -15.7795,
    "longitude" : -47.9297
  },
  {
    "key" : "MS",
    "name" : "Mato Grosso do Sul",
    "latitude" : -20.4486,
    "longitude" : -54.6295
  },
  {
    "key" : "MT",
    "name" : "Mato Grosso",
    "latitude" : -15.601,
    "longitude" : -56.0974
  },
  {
    "key" : "PR",
    "name" : "Paraná",
    "latitude" : -25.4195,
    "longitude" : -49.2646
  },
  {
    "key" : "SC",
    "name" : "Santa Catarina",
    "latitude" : -27.5945,
    "longitude" : -48.5477
  },
  {
    "key" : "GO",
    "name" : "Goiás",
    "latitude" : -16.6864,
    "longitude" : -49.2643
  },
  {
    "key" : "PB",
    "name" : "Paraíba",
    "latitude" : -7.11509,
    "longitude" : -34.8641
  },
  {
    "key" : "AP",
    "name" : "Amapá",
    "latitude" : 0.034934,
    "longitude" : -51.0694
  },
  {
    "key" : "RN",
    "name" : "Rio Grande do Norte",
    "latitude" : -5.79357,
    "longitude" : -35.1986
  },
  {
    "key" : "TO",
    "name" : "Tocantins",
    "latitude" : -10.24,
    "longitude" : -48.3558
  },
  {
    "key" : "RS",
    "name" : "Rio Grande do Sul",
    "latitude" : -30.0318,
    "longitude" : -51.2065
  },
  {
    "key" : "RO",
    "name" : "Rondônia",
    "latitude" : -8.76077,
    "longitude" : -63.8999
  },
  {
    "key" : "PE",
    "name" : "Pernambuco",
    "latitude" : -8.04666,
    "longitude" : -34.8771
  },
  {
    "key" : "RJ",
    "name" : "Rio de Janeiro",
    "latitude" : -22.9129,
    "longitude" : -43.2003
  },
  {
    "key" : "MA",
    "name" : "Maranhão",
    "latitude" : -2.53874,
    "longitude" : -44.2825
  },
  {
    "key" : "SP",
    "name" : "São Paulo",
    "latitude" : -23.5329,
    "longitude" : -46.6395
  },
  {
    "key" : "PI",
    "name" : "Piauí",
    "latitude" : -5.09194,
    "longitude" : -42.8034
  },
  {
    "key" : "ES",
    "name" : "Espírito Santo",
    "latitude" : -20.3155,
    "longitude" : -40.3128
  }
]
