[
  {
    "key" : "AC",
    "name" : "AC - IAPEN",
    "latitude" : -9.966836,
    "longitude" : -67.813035
  },
  {
    "key" : "AM",
    "name" : "AM - SEAP",
    "latitude" : -3.134734,
    "longitude" : -60.028639
  },
  {
    "key" : "BA",
    "name" : "BA - SEAP",
    "latitude" : -14.853648,
    "longitude" : -40.838025
  },
  {
    "key" : "CE",
    "name" : "CE - SEJUS",
    "latitude" : -3.727026,
    "longitude" : -38.511573
  },
  {
    "key" : "GO",
    "name" : "GO - SSP",
    "latitude" : -16.695871,
    "longitude" : -49.272426
  },
  {
    "key" : "JFPR",
    "name" : "JF - PR",
    "latitude" : -25.403739,
    "longitude" : -49.257668
  },
{
    "key" : "JFRS",
    "name" : "JF - RS",
    "latitude" : -30.039861,
    "longitude" : -51.235592
  },
{
    "key" : "JFSP",
    "name" : "JF - SP",
    "latitude" : -23.560675,
    "longitude" : -46.656730
  },
{
    "key" : "MG",
    "name" : "MG - SEJUSP",
    "latitude" : -19.783939,
    "longitude" : -43.949191
  },
{
    "key" : "MS",
    "name" : "MS - AGEPEN",
    "latitude" : -20.432216,
    "longitude" : -54.600544
  },
{
    "key" : "MT",
    "name" : "MT - SESP",
    "latitude" : -15.568856,
    "longitude" : -56.071755
  },
{
    "key" : "PE",
    "name" : "PE - SERES",
    "latitude" : -8.056059,
    "longitude" : -34.883066
  },
{
    "key" : "PI",
    "name" : "PI - SEJUS",
    "latitude" : -5.109744,
    "longitude" : -42.813111
  },
{
    "key" : "PR",
    "name" : "PR - SEJU",
    "latitude" : -25.425421,
    "longitude" : -49.284599
  },
{
    "key" : "RJ",
    "name" : "RJ - SEAP",
    "latitude" : -22.902944,
    "longitude" : -43.190985
  },
{
    "key" : "RN",
    "name" : "RN - SEAP",
    "latitude" : -5.826452,
    "longitude" : -35.209032
  },
{
    "key" : "SC",
    "name" : "SC - SJC",
    "latitude" : -27.587167,
    "longitude" : -48.578417
  },
{
    "key" : "SP",
    "name" : "SP - SAP",
    "latitude" : -23.505223,
    "longitude" : -46.621427
  }
]
